[
  {
    "name": "Boulangerie Pâtisserie Schneider",
    "category": "Boulangerie-Pâtisserie",
    "address": "15 Grand Rue, 67500 Haguenau",
    "phone": "03 88 93 45 67",
    "website": "https://www.boulangerie-schneider.fr/",
    "latitude": 48.815685,
    "longitude": 7.788875,
    "hours": "Mardi-Samedi: 6h30-18h30, Dimanche: 7h-12h30, Lundi: Fermé",
    "description": "Boulangerie artisanale proposant une large gamme de pains, viennoiseries et pâtisseries. Ils utilisent des ingrédients de qualité et offrent un service chaleureux. Leur spécialité : le Kougelhopf."
  },
  {
    "name": "Restaurant Au Cerf",
    "category": "Restaurant",
    "address": "16 Place de la République, 67500 Haguenau",
    "phone": "03 88 93 07 10",
    "website": "https://www.au-cerf.fr/",
    "latitude": 48.817433,
    "longitude": 7.790052,
    "hours": "Mardi-Samedi: 12h00-14h00, 19h00-21h30, Dimanche-Lundi: Fermé",
    "description": "Restaurant gastronomique proposant une cuisine française raffinée. Le cadre est élégant et le service impeccable. Idéal pour une occasion spéciale."
  },
  {
    "name": "Salon de Coiffure Vog Coiffure",
    "category": "Coiffure",
    "address": "38 Grand Rue, 67500 Haguenau",
    "phone": "03 88 93 06 73",
    "website": "https://www.vog.fr/",
    "latitude": 48.816037,
    "longitude": 7.787195,
    "hours": "Mardi-Samedi: 9h00-19h00, Lundi: Fermé",
    "description": "Salon de coiffure moderne offrant une large gamme de prestations pour hommes et femmes. Des coiffeurs professionnels sont à l'écoute de vos envies. Utilisation de produits de qualité."
  },
  {
    "name": "Garage Peugeot Simon Haguenau",
    "category": "Garage Automobile",
    "address": "2 Rue de Strasbourg, 67500 Haguenau",
    "phone": "03 88 73 78 78",
    "website": "https://www.concessions-peugeot.fr/simon-haguenau",
    "latitude": 48.813108,
    "longitude": 7.795563,
    "hours": "Lundi-Vendredi: 8h00-12h00, 14h00-18h00, Samedi: 9h00-12h00, Dimanche: Fermé",
    "description": "Concessionnaire Peugeot offrant la vente de véhicules neufs et d'occasion. Ils proposent également des services de réparation et d'entretien automobile. Une équipe de professionnels est à votre disposition."
  },
  {
    "name": "Docteur Jean-Pierre Klein",
    "category": "Médecin Généraliste",
    "address": "11 Rue du Maire Preis, 67500 Haguenau",
    "phone": "03 88 93 87 27",
    "website": "",
    "latitude": 48.819083,
    "longitude": 7.792009,
    "hours": "Sur rendez-vous",
    "description": "Médecin généraliste accueillant les patients de tous âges. Il assure le suivi médical, les consultations et les vaccinations. Prendre rendez-vous est nécessaire."
  },
  {
    "name": "Pharmacie du Marché",
    "category": "Pharmacie",
    "address": "2 Place Joseph Thierry, 67500 Haguenau",
    "phone": "03 88 93 01 85",
    "website": "",
    "latitude": 48.817871,
    "longitude": 7.789282,
    "hours": "Lundi-Vendredi: 8h30-12h30, 14h00-19h00, Samedi: 8h30-12h30, 14h00-17h00, Dimanche: Fermé",
    "description": "Pharmacie offrant un large choix de médicaments, de produits de parapharmacie et de matériel médical. Des pharmaciens sont présents pour vous conseiller. Possibilité de commander en ligne."
  },
  {
    "name": "Crédit Agricole Alsace Vosges",
    "category": "Banque",
    "address": "35 Grand Rue, 67500 Haguenau",
    "phone": "03 88 90 71 11",
    "website": "https://www.ca-alsace-vosges.fr/",
    "latitude": 48.816023,
    "longitude": 7.787674,
    "hours": "Mardi-Vendredi: 8h45-12h15, 13h45-17h30, Samedi-Lundi: Fermé",
    "description": "Agence bancaire offrant des services financiers aux particuliers et aux professionnels. Conseils personnalisés et solutions adaptées à vos besoins. Prise de rendez-vous en ligne possible."
  },
  {
    "name": "Hôtel Restaurant Champ Alsace",
    "category": "Hôtel-Restaurant",
    "address": "3 Rue du Champ de la Course, 67500 Haguenau",
    "phone": "03 88 73 70 00",
    "website": "https://www.champalsace.fr/",
    "latitude": 48.809591,
    "longitude": 7.788988,
    "hours": "Ouvert tous les jours",
    "description": "Hôtel proposant des chambres confortables et un restaurant servant une cuisine traditionnelle alsacienne. Idéal pour un séjour touristique ou professionnel. Parking disponible."
  },
  {
    "name": "La Pataterie Haguenau",
    "category": "Restaurant",
    "address": "Zone Commerciale du Taubenhof, Rue Georges Cuvier, 67500 Haguenau",
    "phone": "03 88 06 17 36",
    "website": "https://www.lapataterie.fr/restaurant/la-pataterie-haguenau",
    "latitude": 48.809162,
    "longitude": 7.764935,
    "hours": "Lundi-Dimanche: 11h45-14h30, 18h00-22h30",
    "description": "Restaurant spécialisé dans les plats à base de pommes de terre. Ambiance conviviale et familiale. Large choix de plats pour tous les goûts."
  },
  {
    "name": "LCL Banque et Assurance",
    "category": "Banque",
    "address": "19 Place de la République, 67500 Haguenau",
    "phone": "03 88 73 68 00",
    "website": "https://www.lcl.fr/",
    "latitude": 48.817701,
    "longitude": 7.789879,
    "hours": "Mardi-Vendredi: 8h30-12h15, 13h30-17h30, Samedi-Lundi: Fermé",
    "description": "Agence bancaire proposant des services bancaires et d'assurance aux particuliers et aux professionnels. Conseils personnalisés et accompagnement de vos projets. Prise de rendez-vous en ligne possible."
  },
  {
    "name": "Le Glacier Haguenau",
    "category": "Glacier",
    "address": "3 Place Joseph Thierry, 67500 Haguenau",
    "phone": "03 88 73 66 06",
    "website": "",
    "latitude": 48.817893,
    "longitude": 7.789044,
    "hours": "Mardi-Dimanche: 14h00-19h00, Lundi: Fermé",
    "description": "Glacier artisanal proposant une large variété de glaces et de sorbets faits maison. Des parfums originaux et des classiques revisités. Idéal pour une pause gourmande."
  },
  {
    "name": "Cabinet Vétérinaire Saint Georges",
    "category": "Vétérinaire",
    "address": "2 Rue de la Moder, 67500 Haguenau",
    "phone": "03 88 93 05 00",
    "website": "http://www.veterinaire-haguenau.fr/",
    "latitude": 48.815287,
    "longitude": 7.792548,
    "hours": "Lundi-Vendredi: 8h00-12h00, 14h00-19h00, Samedi: 8h00-12h00, Dimanche: Fermé",
    "description": "Cabinet vétérinaire proposant des soins pour animaux de compagnie. Consultations, vaccinations, chirurgie et conseils. Une équipe attentionnée et compétente."
  },
  {
    "name": "Action",
    "category": "Magasin discount",
    "address": "Centre Commercial Espace Haguenau, 1 Rue du Houblon, 67500 Haguenau",
    "phone": "",
    "website": "https://www.action.com/fr-fr/magasins/haguenau/",
    "latitude": 48.812248,
    "longitude": 7.771089,
    "hours": "Lundi-Samedi: 9h00-19h00, Dimanche: Fermé",
    "description": "Magasin discount proposant une large gamme de produits à petits prix : décoration, bricolage, jouets, papeterie, etc. Idéal pour faire de bonnes affaires."
  },
  {
    "name": "Caisse d'Epargne Grand Est Europe",
    "category": "Banque",
    "address": "7 Place de la République, 67500 Haguenau",
    "phone": "03 88 93 00 11",
    "website": "https://www.caisse-epargne.fr/",
    "latitude": 48.817463,
    "longitude": 7.790592,
    "hours": "Mardi-Vendredi: 8h30-12h00, 13h30-17h30, Samedi: 8h30-12h00, Dimanche-Lundi: Fermé",
    "description": "Agence bancaire proposant des services bancaires et d'assurance aux particuliers et aux professionnels. Conseils personnalisés et accompagnement de vos projets. Prise de rendez-vous en ligne possible."
  },
  {
    "name": "Supermarché Match Haguenau",
    "category": "Supermarché",
    "address": "1 Rue du Houblon, 67500 Haguenau",
    "phone": "03 88 73 71 00",
    "website": "https://www.supermarchesmatch.fr/",
    "latitude": 48.812294,
    "longitude": 7.771451,
    "hours": "Lundi-Samedi: 8h30-20h00, Dimanche: 9h00-12h30",
    "description": "Supermarché proposant une large gamme de produits alimentaires et non alimentaires. Fruits et légumes frais, produits locaux et bio. Large choix de marques."
  },
  {
    "name": "Hôpital de Haguenau",
    "category": "Hôpital",
    "address": "24 Rue du Professeur Leriche, 67500 Haguenau",
    "phone": "03 88 90 61 00",
    "website": "https://www.ch-haguenau.fr/",
    "latitude": 48.810371,
    "longitude": 7.796014,
    "hours": "Ouvert 24h/24",
    "description": "Centre hospitalier offrant une large gamme de services médicaux. Urgences, consultations, hospitalisation et chirurgie. Personnel médical qualifié et équipements modernes."
  },
  {
    "name": "Pizza Cosy Haguenau",
    "category": "Pizzeria",
    "address": "13 Rue de la Moder, 67500 Haguenau",
    "phone": "03 88 72 41 90",
    "website": "https://www.pizza-cosy.fr/pizzeria/haguenau",
    "latitude": 48.815025,
    "longitude": 7.79172,
    "hours": "Lundi-Dimanche: 11h00-14h00, 18h00-22h00",
    "description": "Pizzeria proposant des pizzas artisanales avec des ingrédients frais et de qualité. Pâte faite maison et large choix de garnitures. Possibilité de commander en ligne et à emporter."
  },
  {
    "name": "MMA Haguenau",
    "category": "Assurance",
    "address": "25 Place de la République, 67500 Haguenau",
    "phone": "03 88 93 71 77",
    "website": "https://agence.mma.fr/haguenau",
    "latitude": 48.817858,
    "longitude": 7.78966,
    "hours": "Lundi-Vendredi: 9h00-12h00, 14h00-18h00, Samedi-Dimanche: Fermé",
    "description": "Agence d'assurance proposant une large gamme de contrats pour les particuliers et les professionnels. Assurance auto, habitation, santé, prévoyance, etc. Conseils personnalisés."
  },
  {
    "name": "Boutique Orange Haguenau",
    "category": "Téléphonie",
    "address": "28 Grand Rue, 67500 Haguenau",
    "phone": "",
    "website": "https://boutique.orange.fr/boutique/haguenau/",
    "latitude": 48.815881,
    "longitude": 7.787361,
    "hours": "Lundi-Samedi: 9h30-12h30, 13h30-18h30, Dimanche: Fermé",
    "description": "Boutique Orange proposant des forfaits mobiles, internet et des équipements de téléphonie. Conseils personnalisés et assistance technique. Démonstration des produits."
  },
  {
    "name": "Yves Rocher",
    "category": "Cosmétiques",
    "address": "Centre Commercial Espace Haguenau, 1 Rue du Houblon, 67500 Haguenau",
    "phone": "03 88 73 65 18",
    "website": "https://www.yves-rocher.fr/",
    "latitude": 48.812333,
    "longitude": 7.771526,
    "hours": "Lundi-Samedi: 9h00-19h00, Dimanche: Fermé",
    "description": "Boutique Yves Rocher proposant des produits de beauté à base de plantes. Maquillage, soins du visage et du corps, parfums. Conseils personnalisés et soins en cabine."
  },
  {
    "name": "BNP Paribas Haguenau",
    "category": "Banque",
    "address": "2 Place de la République, 67500 Haguenau",
    "phone": "0820 820 001",
    "website": "https://mabanque.bnpparibas/",
    "latitude": 48.817096,
    "longitude": 7.790383,
    "hours": "Mardi-Vendredi: 8h30-12h15, 13h30-17h30, Samedi-Lundi: Fermé",
    "description": "Agence bancaire proposant des services bancaires et d'assurance aux particuliers et aux professionnels. Conseils personnalisés et accompagnement de vos projets. Prise de rendez-vous en ligne possible."
  },
  {
    "name": "Cordonnerie du Marché",
    "category": "Cordonnerie",
    "address": "15 Place Joseph Thierry, 67500 Haguenau",
    "phone": "03 88 93 69 08",
    "website": "",
    "latitude": 48.81813,
    "longitude": 7.78916,
    "hours": "Mardi-Vendredi: 8h00-12h00, 14h00-18h30, Samedi: 8h00-12h00, 14h00-17h00, Dimanche-Lundi: Fermé",
    "description": "Cordonnerie artisanale proposant la réparation de chaussures, la reproduction de clés et la vente d'articles de maroquinerie. Travail soigné et de qualité."
  },
  {
    "name": "Optic 2000 Haguenau",
    "category": "Optique",
    "address": "31 Grand Rue, 67500 Haguenau",
    "phone": "03 88 73 66 84",
    "website": "https://www.optic2000.com/opticien/haguenau-67500/31-grand-rue",
    "latitude": 48.815943,
    "longitude": 7.787533,
    "hours": "Mardi-Samedi: 9h00-12h00, 14h00-19h00, Lundi: Fermé",
    "description": "Magasin d'optique proposant un large choix de lunettes de vue et de soleil. Examen de la vue, adaptation de lentilles de contact. Conseils personnalisés et large gamme de marques."
  },
  {
    "name": "Celio",
    "category": "Vêtements Homme",
    "address": "Centre Commercial Espace Haguenau, 1 Rue du Houblon, 67500 Haguenau",
    "phone": "03 88 06 22 46",
    "website": "https://www.celio.com/fr/magasins/celio-haguenau-30019",
    "latitude": 48.81233,
    "longitude": 7.77154,
    "hours": "Lundi-Samedi: 9h00-19h00, Dimanche: Fermé",
    "description": "Magasin de vêtements pour hommes proposant un large choix de vêtements et d'accessoires. Collections tendances et prix abordables. Conseils personnalisés."
  },
  {
    "name": "Burger King",
    "category": "Restaurant",
    "address": "Rue du Taubenhof, 67500 Haguenau",
    "phone": "",
    "website": "https://www.burgerking.fr/",
    "latitude": 48.808912,
    "longitude": 7.766442,
    "hours": "Lundi-Dimanche: 11h00-23h00",
    "description": "Restaurant de restauration rapide proposant des burgers, des frites et des boissons. Menu varié et prix abordables. Service rapide et possibilité de commander en ligne."
  },
  {
    "name": "Orchestra",
    "category": "Vêtements Enfants",
    "address": "Zone Commerciale du Taubenhof, Rue Georges Cuvier, 67500 Haguenau",
    "phone": "03 88 05 13 30",
    "website": "https://www.orchestra.com/",
    "latitude": 48.808373,
    "longitude": 7.765064,
    "hours": "Lundi-Samedi: 9h30-19h00, Dimanche: Fermé",
    "description": "Magasin de vêtements pour enfants proposant un large choix de vêtements, de chaussures et d'accessoires pour les bébés et les enfants jusqu'à 14 ans. Large gamme de marques."
  },
  {
    "name": "Bureau Vallée",
    "category": "Fournitures de bureau",
    "address": "Rue Georges Cuvier ZC du Taubenhof, 67500 Haguenau",
    "phone": "03 88 73 37 50",
    "website": "https://www.bureauvallee.fr/magasin-bureau-vallee-haguenau-33.html",
    "latitude": 48.808635,
    "longitude": 7.766313,
    "hours": "Lundi-Samedi: 9h00-19h00, Dimanche: Fermé",
    "description": "Magasin proposant une large gamme de fournitures de bureau, papeterie, cartouches d'encre et matériel informatique. Idéal pour les professionnels et les particuliers."
  },
  {
    "name": "Schmidt Haguenau",
    "category": "Cuisines et ameublement",
    "address": "2 Rue de l'Aigle, 67500 Haguenau",
    "phone": "03 88 73 72 72",
    "website": "https://www.cuisines-schmidt.com/fr-fr/magasins/haguenau-67500",
    "latitude": 48.812611,
    "longitude": 7.785946,
    "hours": "Lundi: 14h00-18h00, Mardi-Vendredi: 9h00-12h00, 14h00-18h00, Samedi: 9h00-12h00, 14h00-17h00, Dimanche: Fermé",
    "description": "Magasin spécialisé dans la conception et la vente de cuisines aménagées et de meubles sur mesure. Des experts vous accompagnent dans votre projet."
  },
  {
    "name": "Feu Vert Haguenau",
    "category": "Equipement Automobile",
    "address": "Zone Commerciale du Taubenhof, 1 Rue Georges Cuvier, 67500 Haguenau",
    "phone": "03 88 73 79 79",
    "website": "https://www.feuvert.fr/",
    "latitude": 48.808499,
    "longitude": 7.766631,
    "hours": "Lundi-Samedi: 9h00-19h00, Dimanche: Fermé",
    "description": "Centre auto proposant un large choix d'équipements et d'accessoires pour votre voiture. Entretien, réparation et montage de pneus. Conseils personnalisés."
  },
  {
    "name": "Espace Culturel Leclerc Haguenau",
    "category": "Librairie",
    "address": "6 Route de Strasbourg, 67500 Haguenau",
    "phone": "03 88 73 60 70",
    "website": "https://www.e.leclerc/mag/espace-culturel-haguenau",
    "latitude": 48.813822,
    "longitude": 7.765565,
    "hours": "Lundi-Samedi: 9h00-20h00, Dimanche: Fermé",
    "description": "Librairie proposant un large choix de livres, de CD, de DVD et de jeux vidéo. Rayons thématiques et conseils personnalisés. Organisation d'événements et de dédicaces."
  },
  {
    "name": "Boucherie Charcuterie Traiteur Meyer",
    "category": "Boucherie-Charcuterie",
    "address": "10 Rue de la Moder, 67500 Haguenau",
    "phone": "03 88 93 00 25",
    "website": "",
    "latitude": 48.81512,
    "longitude": 7.79213,
    "hours": "Mardi-Vendredi: 7h30-12h30, 15h00-18h30, Samedi: 7h30-12h30, 14h30-17h30, Dimanche-Lundi: Fermé",
    "description": "Boucherie artisanale proposant de la viande de qualité, de la charcuterie maison et des plats traiteur. Produits frais et conseils personnalisés. Idéal pour vos repas de fête."
  },
  {
    "name": "La Mie Câline",
    "category": "Boulangerie-Pâtisserie",
    "address": "2 Rue de Strasbourg, 67500 Haguenau",
    "phone": "03 88 72 48 34",
    "website": "https://www.lamiecaline.com/",
    "latitude": 48.812575,
    "longitude": 7.794241,
    "hours": "Lundi-Samedi: 6h30-19h30, Dimanche: 7h00-19h30",
    "description": "Boulangerie-pâtisserie proposant un large choix de pains, de viennoiseries, de pâtisseries et de produits salés. Idéal pour une pause gourmande ou un déjeuner rapide."
  },
  {
    "name": "Sushi Time",
    "category": "Restaurant Japonais",
    "address": "6 Rue de la Moder, 67500 Haguenau",
    "phone": "03 88 06 12 34",
    "website": "",
    "latitude": 48.815062,
    "longitude": 7.793147,
    "hours": "Lundi-Samedi: 11h30-14h00, 18h30-22h00, Dimanche: Fermé",
    "description": "Restaurant japonais proposant une large variété de sushis, makis et sashimis. Plats préparés à la demande avec des produits frais. Possibilité de commander à emporter."
  },
  {
    "name": "Jardiland Haguenau",
    "category": "Jardinerie",
    "address": "Rue Georges Cuvier, 67500 Haguenau",
    "phone": "03 88 73 67 67",
    "website": "https://www.jardiland.com/magasins/jardiland-haguenau",
    "latitude": 48.80775,
    "longitude": 7.76721,
    "hours": "Lundi-Samedi: 9h00-19h00, Dimanche: Fermé",
    "description": "Jardinerie proposant un large choix de plantes, de fleurs, d'outillage de jardin et de mobilier d'extérieur. Conseils personnalisés et ateliers de jardinage."
  },
  {
    "name": "Le Royal Kebab",
    "category": "Restaurant Kebab",
    "address": "4 Rue de la Moder, 67500 Haguenau",
    "phone": "03 88 73 20 40",
    "website": "",
    "latitude": 48.81508,
    "longitude": 7.79343,
    "hours": "Lundi-Dimanche: 11h00-23h00",
    "description": "Restaurant Kebab proposant des kebabs, des frites et des boissons. Plats préparés à la demande. Idéal pour un repas rapide."
  },
  {
    "name": "Besson Chaussures Haguenau",
    "category": "Magasin de chaussures",
    "address": "Rue Georges Cuvier, ZC du Taubenhof, 67500 Haguenau",
    "phone": "03 88 90 60 60",
    "website": "https://www.besson-chaussures.com/nos-magasins/besson-chaussures-haguenau_234",
    "latitude": 48.80824,
    "longitude": 7.76622,
    "hours": "Lundi-Samedi: 9h30-19h00, Dimanche: Fermé",
    "description": "Magasin de chaussures proposant un large choix de chaussures pour hommes, femmes et enfants. Large gamme de marques et de styles. Conseils personnalisés."
  },
  {
    "name": "Pizza Time",
    "category": "Pizzeria",
    "address": "10 Rue du Noyer, 67500 Haguenau",
    "phone": "03 88 93 67 40",
    "website": "",
    "latitude": 48.81943,
    "longitude": 7.78564,
    "hours": "Lundi-Samedi: 11h00-14h00, 18h00-22h00, Dimanche: Fermé",
    "description": "Pizzeria proposant des pizzas à emporter ou à déguster sur place. Large choix de garnitures et de tailles. Possibilité de commander en ligne."
  },
  {
    "name": "Médiathèque de Haguenau",
    "category": "Bibliothèque",
    "address": "24 Rue du Maire Preis, 67500 Haguenau",
    "phone": "03 88 90 76 00",
    "website": "https://www.ville-haguenau.fr/culture-sports-loisirs/mediatheque/",
    "latitude": 48.81997,
    "longitude": 7.79276,
    "hours": "Mardi-Vendredi: 14h00-18h00, Mercredi: 10h00-18h00, Samedi: 10h00-17h00, Dimanche-Lundi: Fermé",
    "description": "Bibliothèque municipale proposant un large choix de livres, de magazines, de CD et de DVD. Accès internet gratuit et animations culturelles."
  },
  {
    "name": "L'Atelier du Fleuriste",
    "category": "Fleuriste",
    "address": "8 Grand Rue, 67500 Haguenau",
    "phone": "03 88 93 45 20",
    "website": "",
    "latitude": 48.816234,
    "longitude": 7.788456,
    "hours": "Mardi-Samedi: 9h00-12h00, 14h00-19h00, Dimanche-Lundi: Fermé",
    "description": "Fleuriste proposant des compositions florales pour toutes les occasions : mariages, anniversaires, deuils, etc. Livraison à domicile et conseil personnalisé."
  },
  {
    "name": "Institut de Beauté Zen",
    "category": "Institut de beauté",
    "address": "12 Rue de la Moder, 67500 Haguenau",
    "phone": "03 88 93 88 77",
    "website": "",
    "latitude": 48.815176,
    "longitude": 7.792384,
    "hours": "Mardi-Samedi: 9h30-18h30, Dimanche-Lundi: Fermé",
    "description": "Institut de beauté proposant des soins du visage et du corps, épilation, manucure, pédicure et maquillage. Ambiance relaxante et produits de qualité. Prise de rendez-vous recommandée."
  },
  {
    "name": "Tabac Presse du Centre",
    "category": "Tabac-Presse",
    "address": "20 Grand Rue, 67500 Haguenau",
    "phone": "03 88 93 12 34",
    "website": "",
    "latitude": 48.815789,
    "longitude": 7.787823,
    "hours": "Lundi-Samedi: 7h00-19h00, Dimanche: 8h00-13h00",
    "description": "Bureau de tabac et librairie presse proposant journaux, magazines, tabac, jeux de grattage et papeterie. Service de proximité dans le centre-ville."
  },
  {
    "name": "La Brioche Dorée",
    "category": "Boulangerie-Restauration rapide",
    "address": "Centre Commercial Espace Haguenau, 67500 Haguenau",
    "phone": "03 88 93 76 54",
    "website": "https://www.labriiochedoree.fr/",
    "latitude": 48.812287,
    "longitude": 7.771234,
    "hours": "Lundi-Samedi: 9h00-19h30, Dimanche: Fermé",
    "description": "Chaîne de boulangerie-restauration rapide proposant des viennoiseries, sandwichs, salades et pâtisseries. Idéal pour une pause déjeuner rapide."
  },
  {
    "name": "Intermarché",
    "category": "Supermarché",
    "address": "45 Route de Strasbourg, 67500 Haguenau",
    "phone": "03 88 90 65 00",
    "website": "https://www.intermarche.com/",
    "latitude": 48.814123,
    "longitude": 7.792876,
    "hours": "Lundi-Samedi: 8h30-20h00, Dimanche: 9h00-12h30",
    "description": "Supermarché proposant une large gamme de produits alimentaires et non alimentaires. Produits frais, bio et locaux. Station-service disponible."
  },
  {
    "name": "Cabinet Dentaire Dr. Weber",
    "category": "Dentiste",
    "address": "18 Rue du Maire Preis, 67500 Haguenau",
    "phone": "03 88 93 22 33",
    "website": "",
    "latitude": 48.819234,
    "longitude": 7.791765,
    "hours": "Sur rendez-vous uniquement",
    "description": "Cabinet dentaire proposant des soins dentaires pour toute la famille : détartrage, plombages, couronnes, orthodontie. Equipements modernes et personnel attentionné."
  }
]
